{"items":[{"id":"5f70a9a55dfd","name":"MONDORE SRL","country":"it","fullAddress":"Via Emilia, 173/B, 40068, San Lazzaro di Savena (BO)","base":{"active":true,"inGroup":false,"legalForms":[{"level":1,"name":"Societ\u00e0 Di Capitale"},{"level":2,"name":"Societ\u00e0 A Responsabilit\u00e0 Limitata"}],"vat":"03369901206","cciaa":"BO","registeredAddress":{"provinceCode":"BO","lat":44.47014046,"latlonPrecision":90,"streetNumber":"173/B","province":"Bologna","state":"Italia","fullAddress":"Via Emilia, 173/B, 40068, San Lazzaro di Savena (BO)","streetName":"Emilia","postcode":"40068","toponym":"Via","macroregion":"Nord-est","region":"Emilia-Romagna","municipality":"San Lazzaro di Savena","lon":11.40971586},"startup":false,"taxId":"03369901206","ateco":[{"description":"Attivit\u00e0 di mediazione immobiliare","code":"68.31","rootCode":"L"}],"rea":"513838","legalName":"MONDORE SRL","founded":"2014-04-09"}},{"id":"c8d5d7feff1e","name":"MONDORA S.R.L. SOCIETA' BENEFIT","country":"it","fullAddress":"Via Uberto Visconti Di Modrone, 33, 20122, Milano (MI)","base":{"active":true,"inGroup":true,"legalForms":[{"level":1,"name":"Societ\u00e0 Di Capitale"},{"level":2,"name":"Societ\u00e0 A Responsabilit\u00e0 Limitata"}],"vat":"03680680968","cciaa":"MI","registeredAddress":{"provinceCode":"MI","lat":45.46656912,"latlonPrecision":90,"streetNumber":"33","province":"Milano","state":"Italia","fullAddress":"Via Uberto Visconti Di Modrone, 33, 20122, Milano (MI)","streetName":"Uberto Visconti Di Modrone","postcode":"20122","toponym":"Via","macroregion":"Nord-ovest","region":"Lombardia","municipality":"Milano","lon":9.20052319},"startup":false,"taxId":"03680680968","ateco":[{"description":"Produzione di software non connesso all'edizione","code":"62.01","rootCode":"J"}],"rea":"1694989","legalName":"MONDORA S.R.L. SOCIETA' BENEFIT","founded":"2002-09-21"}},{"id":"9c1ec5d929fa","name":"MONDORINNOVO DI URBANI PAOLO","country":"it","fullAddress":"Via Per Villa Cortese, 86, 20025, Legnano (MI)","base":{"active":true,"inGroup":false,"legalForms":[{"level":1,"name":"Impresa Individuale"},{"level":2,"name":"Impresa Individuale"}],"vat":"02504930120","cciaa":"MI","registeredAddress":{"provinceCode":"MI","lat":45.57134984,"latlonPrecision":90,"streetNumber":"86","province":"Milano","state":"Italia","fullAddress":"Via Per Villa Cortese, 86, 20025, Legnano (MI)","streetName":"Per Villa Cortese","postcode":"20025","toponym":"Via","macroregion":"Nord-ovest","region":"Lombardia","municipality":"Legnano","lon":8.90139998},"startup":false,"taxId":"RBNPLA66D29D869S","ateco":[{"description":"Posa in opera di infissi, arredi, controsoffitti, pareti mobili e simili","code":"43.32.02","rootCode":"F"}],"rea":"1584212","legalName":"MONDORINNOVO DI URBANI PAOLO","founded":"1999-04-28"}},{"id":"f734f3f17aee","name":"MONDORADIO TUTTIFRUTTI S.R.L.","country":"it","fullAddress":"Via Ottaviano Augusto, 5, 73039, Tricase (LE)","base":{"active":true,"inGroup":false,"legalForms":[{"level":1,"name":"Societ\u00e0 Di Capitale"},{"level":2,"name":"Societ\u00e0 A Responsabilit\u00e0 Limitata"}],"vat":"03073130753","cciaa":"LE","registeredAddress":{"provinceCode":"LE","lat":39.92564,"latlonPrecision":90,"streetNumber":"5","province":"Lecce","state":"Italia","fullAddress":"Via Ottaviano Augusto, 5, 73039, Tricase (LE)","streetName":"Ottaviano Augusto","postcode":"73039","toponym":"Via","macroregion":"Sud","region":"Puglia","municipality":"Tricase","lon":18.35129},"startup":false,"taxId":"03073130753","ateco":[{"description":"TRASMISSIONI RADIOFONICHE","code":"60.1","rootCode":"J"}],"rea":"183126","legalName":"MONDORADIO TUTTIFRUTTI S.R.L.","founded":"1996-04-17"}},{"id":"fe5a2d8db5c0","name":"MONDORICIA LTD","country":"uk","fullAddress":"EMPRESS HEIGHTS COLLEGE STREET SOUTHAMPTON HAMPSHIRE SO14 3LA","base":{"registeredAddress":{"postcode":"SO14 3LA","streetName":"EMPRESS HEIGHTS COLLEGE STREET","macroregion":"South East (England)","region":"Hampshire and Isle of Wight","municipality":"Southampton","province":"Southampton","state":"United Kingdom","fullAddress":"EMPRESS HEIGHTS COLLEGE STREET SOUTHAMPTON HAMPSHIRE SO14 3LA"},"active":true,"founded":"2013-04-09","inGroup":false,"legalForms":[{"level":2,"name":"Private Limited Company"}],"rea":"08481265","legalName":"MONDORICIA LTD","startup":false}},{"id":"87dbcbf94ca4","name":"MONDOR LP","country":"uk","fullAddress":"SUITE 4391 MITCHELL HOUSE 5 MITCHELL STREET EDINBURGH EH6 7BD","base":{"registeredAddress":{"postcode":"EH6 7BD","streetName":"SUITE 4391 MITCHELL HOUSE 5 MITCHELL STREET","macroregion":"Scotland","region":"Eastern Scotland","municipality":"Edinburgh, City of","province":"Edinburgh, City of","state":"United Kingdom","fullAddress":"SUITE 4391 MITCHELL HOUSE 5 MITCHELL STREET EDINBURGH EH6 7BD"},"active":true,"founded":"2012-11-20","inGroup":false,"legalForms":[{"level":2,"name":"Limited Partnership"}],"rea":"SL011787","legalName":"MONDOR LP","startup":false}},{"id":"020635529bcb","name":"MONDORO DI APRILE GIORGIO & CI. SAS","country":"it","fullAddress":"Via Sacro Cuore, 14, 97010, Modica (RG)","base":{"active":true,"inGroup":false,"legalForms":[{"level":1,"name":"Societ\u00e0 Di Persone"},{"level":2,"name":"Societ\u00e0 In Accomandita Semplice"}],"vat":"00698060886","cciaa":"RG","registeredAddress":{"provinceCode":"RG","lat":36.84075,"latlonPrecision":90,"streetNumber":"14","province":"Ragusa","state":"Italia","fullAddress":"Via Sacro Cuore, 14, 97010, Modica (RG)","streetName":"Sacro Cuore","postcode":"97010","toponym":"Via","macroregion":"Isole","region":"Sicilia","municipality":"Modica","lon":14.76476},"startup":false,"taxId":"00698060886","ateco":[{"description":"Commercio al dettaglio di orologi e articoli di gioielleria in esercizi specializzati","code":"47.77","rootCode":"G"}],"rea":"72016","legalName":"MONDORO DI APRILE GIORGIO & CI. SAS","founded":"1985-09-26"}},{"id":"5152750e0363","name":"MONDORICAMO S.R.L.","country":"it","fullAddress":"Via Alessandro Volta, 9/11, 06010, Pistrino, Citerna (PG)","base":{"active":true,"inGroup":false,"legalForms":[{"level":1,"name":"Societ\u00e0 Di Capitale"},{"level":2,"name":"Societ\u00e0 A Responsabilit\u00e0 Limitata"}],"vat":"02872540543","cciaa":"PG","registeredAddress":{"hamlet":"Pistrino","provinceCode":"PG","lat":43.50751,"latlonPrecision":80,"streetNumber":"9/11","province":"Perugia","state":"Italia","fullAddress":"Via Alessandro Volta, 9/11, 06010, Pistrino, Citerna (PG)","streetName":"Alessandro Volta","postcode":"06010","toponym":"Via","macroregion":"Centro","region":"Umbria","municipality":"Citerna","lon":12.15984},"startup":false,"taxId":"02872540543","ateco":[{"description":"Fabbricazione di ricami","code":"13.99.1","rootCode":"C"}],"rea":"247094","legalName":"MONDORICAMO S.R.L.","founded":"2006-03-23"}},{"id":"d6a063f375cf","name":"MONDOROMA DISTRIBUZIONE S.R.L.","country":"it","fullAddress":"Rampa Delle Mura Aurelie, 8/11, 00165, Roma (RM)","base":{"active":true,"inGroup":true,"legalForms":[{"level":1,"name":"Societ\u00e0 Di Capitale"},{"level":2,"name":"Societ\u00e0 A Responsabilit\u00e0 Limitata"}],"vat":"08761311003","cciaa":"RM","registeredAddress":{"provinceCode":"RM","lat":41.896421,"latlonPrecision":90,"streetNumber":"8/11","province":"Roma","state":"Italia","fullAddress":"Rampa Delle Mura Aurelie, 8/11, 00165, Roma (RM)","streetName":"Delle Mura Aurelie","postcode":"00165","toponym":"Rampa","macroregion":"Centro","region":"Lazio","municipality":"Roma","lon":12.45788811},"startup":false,"taxId":"08761311003","ateco":[{"description":"Commercio all'ingrosso di libri, riviste e giornali","code":"46.49.2","rootCode":"G"}],"rea":"1117356","legalName":"MONDOROMA DISTRIBUZIONE S.R.L.","founded":"2005-12-14"}},{"id":"f4115166d68b","name":"GRAFICHE MONDOROSA DI GIAN FRANCO LORU","country":"it","fullAddress":"Via Nino Bixio, 31, 09039, Villacidro (VS)","base":{"active":true,"inGroup":false,"legalForms":[{"level":1,"name":"Impresa Individuale"},{"level":2,"name":"Impresa Individuale"}],"vat":"02985600929","cciaa":"CA","registeredAddress":{"provinceCode":"VS","lat":39.455825,"latlonPrecision":90,"streetNumber":"31","province":"Medio Campidano","state":"Italia","fullAddress":"Via Nino Bixio, 31, 09039, Villacidro (VS)","streetName":"Nino Bixio","postcode":"09039","toponym":"Via","macroregion":"Isole","region":"Sardegna","municipality":"Villacidro","lon":8.746524},"startup":false,"taxId":"LROGFR68L06L924X","ateco":[{"description":"Attivit\u00e0 dei disegnatori grafici di pagine web","code":"74.10.21","rootCode":"M"}],"rea":"237976","legalName":"GRAFICHE MONDOROSA DI GIAN FRANCO LORU","founded":"2005-09-23"}}],"meta":{"ordering":"atoka","limit":10,"offset":0,"count":34}}